var dados =[
  {
    "Latitude": -3.111075,
    "Longitude": -60.01330,
    "Endereco": "AV. MARIO YPIRANGA X RUA.FORTALEZA \/ RUA. TEREZINA",
    "Status": "A"
  },
  {
    "Latitude": -3.112289,
    "Longitude": -60.013383,
    "Endereco": "AV. MARIO YPIRANGA X RUA TERESINA",
    "Status": "A"
  },
  {
    "Latitude": -3.097147,
    "Longitude": -60.01520,
    "Endereco": "TESTE DE PROGRAMAÇAO",
    "Status": "A"
  },
  {
    "Latitude": -3.124523,
    "Longitude": -60.011740,
    "Endereco": "AV. DUQUE DE CAXIAS X AV. LEONARDO MALCHER X AV. TEFA X TARUMA",
    "Status": "A"
  },
  {
    "Latitude": -3.115808,
    "Longitude": -60.016733,
    "Endereco": "AV. MACEIO X AV. ALVARO MAIA",
    "Status": "A"
  },
  {
    "Latitude": -3.129925,
    "Longitude": -60.022788,
    "Endereco": "R. 10 DE JULHO X R. TAPAJÓS",
    "Status": "A"
  },
  {
    "Latitude": -3.107892,
    "Longitude": -60.015952,
    "Endereco": "AV. MACEIO X RUA SALVADOR",
    "Status": "A"
  },
  {
    "Latitude": -3.114189,
    "Longitude": -60.016639,
    "Endereco": "AV. MACEIO X R. PROF MARCIANO ARMOND",
    "Status": "A"
  }
];